{"type":"FeatureCollection","features":[{"type":"Feature","properties":{"Name":"Western Regional Hospital, Pokhara ","CD4 count machine":"BD FACS Calibur","District":"Kaski"},"geometry":{"type":"Point","coordinates":[83.998471,28.212269]}},{"type":"Feature","properties":{"Name":"Teku Hospital, Kathmandu ","CD4 count machine":"Partec Cyflow","District":"Kathmandu"},"geometry":{"type":"Point","coordinates":[85.3061986,27.6949492]}},{"type":"Feature","properties":{"Name":"BP Koirala Institute of Health Sciences (BPKIHS), Dharan","CD4 count machine":"BD FACS Calibur","District":"Sunsari"},"geometry":{"type":"Point","coordinates":[87.267665,26.809612]}},{"type":"Feature","properties":{"Name":"Seti Zonal Hospital Seti Zonal Hospital, Dhangadhi","CD4 count machine":"BD FACS Calibur","District":"Kailali"},"geometry":{"type":"Point","coordinates":[80.587635,28.703537]}},{"type":"Feature","properties":{"Name":"Bheri Zonal Hospital, Nepalgunj","CD4 count machine":"BD FACS Calibur","District":"Banke"},"geometry":{"type":"Point","coordinates":[81.619743,28.052794]}},{"type":"Feature","properties":{"Name":"Tribhuwan University Teaching Hospital (TUTH), Maharajgunj ","CD4 count machine":"BD FACS Calibur","District":"Kathmandu"},"geometry":{"type":"Point","coordinates":[85.330746,27.73613]}},{"type":"Feature","properties":{"Name":"Bharatpur Hospital, Bharatpur Chitwan","CD4 count machine":"Partec FACS Count","District":"Chitwan"},"geometry":{"type":"Point","coordinates":[84.43646,27.68217]}},{"type":"Feature","properties":{"Name":"Janakpur Zonal Hospital, Janakpur","CD4 count machine":"BD FACS Calibur","District":"Dhanusa"},"geometry":{"type":"Point","coordinates":[85.923444,26.733255]}},{"type":"Feature","properties":{"Name":"Lumbini Zonal Hospital, Butwal","CD4 count machine":"BD FACS Calibur","District":"Rupandehi"},"geometry":{"type":"Point","coordinates":[83.465017,27.697545]}},{"type":"Feature","properties":{"Name":"Doti District Hospital, Silgudhi","CD4 count machine":"BD FACS Calibur","District":"Doti"},"geometry":{"type":"Point","coordinates":[80.93743,29.24016]}},{"type":"Feature","properties":{"Name":"Mid Western Regional Hospital , Birendranagar","CD4 count machine":"BD FACS Calibur","District":"Surkhet"},"geometry":{"type":"Point","coordinates":[81.601054,28.606385]}},{"type":"Feature","properties":{"Name":"Accham District Hospital, Mangalsen","CD4 count machine":"BD FACS Calibur","District":"Accham"},"geometry":{"type":"Point","coordinates":[81.257801,29.134863]}},{"type":"Feature","properties":{"Name":"Narayani Sub Regional Hospital, Birgunj","CD4 count machine":"BD FACS Calibur","District":"Parsa"},"geometry":{"type":"Point","coordinates":[84.89382,27.0136]}},{"type":"Feature","properties":{"Name":"District Hospital, Dadeldhura","CD4 count machine":"Partec FACS Count","District":"Dadeldhura"},"geometry":{"type":"Point","coordinates":[80.586733,29.299119]}},{"type":"Feature","properties":{"Name":"Mechi Zonal Hospital","CD4 count machine":"Partec FACS Count","District":"Jhapa"},"geometry":{"type":"Point","coordinates":[88.088314,26.556828]}},{"type":"Feature","properties":{"Name":"Tikapur Hospital, Tikapur","CD4 count machine":"Partec FACS Count","District":"Kailali"},"geometry":{"type":"Point","coordinates":[81.12047,28.53416]}},{"type":"Feature","properties":{"Name":"Dhaulagiri Zonal Hospital, Baglung","CD4 count machine":"PIMA POC","District":"Baglung"},"geometry":{"type":"Point","coordinates":[83.600474,28.268531]}},{"type":"Feature","properties":{"Name":"Baitadi District Hospital, Baitadi","CD4 count machine":"PIMA POC","District":"Baitadi"},"geometry":{"type":"Point","coordinates":[80.37221,29.53787]}},{"type":"Feature","properties":{"Name":"National Public Health Labarotory, Teku","CD4 count machine":"BD FACS Calibur/BD FACS Count","District":"Kathmandu"},"geometry":{"type":"Point","coordinates":[85.304921,27.695498]}},{"type":"Feature","properties":{"Name":"Mahakali Zonal Hospital","CD4 count machine":"PIMA POC","District":"Kanchanpur"},"geometry":{"type":"Point","coordinates":[80.184708,28.964167]}},{"type":"Feature","properties":{"Name":"Bayalpata Hospital","CD4 count machine":"PIMA POC","District":"Achham"},"geometry":{"type":"Point","coordinates":[81.39794,29.02873]}},{"type":"Feature","properties":{"Name":"Bardiya District Hospital","CD4 count machine":"PIMA POC","District":"Bardiya"},"geometry":{"type":"Point","coordinates":[81.13267,28.4362]}},{"type":"Feature","properties":{"Name":"Rapti-sub Regional Hospital, Ghorahi","CD4 count machine":"PIMA POC","District":"Dang"},"geometry":{"type":"Point","coordinates":[82.491952,28.037838]}},{"type":"Feature","properties":{"Name":"United Mission Hospital, Tansen","CD4 count machine":"PIMA POC","District":"Palpa"},"geometry":{"type":"Point","coordinates":[83.557687,27.871782]}},{"type":"Feature","properties":{"Name":"Tanahu District Hospital","CD4 count machine":"PIMA POC","District":"Tanahu"},"geometry":{"type":"Point","coordinates":[84.265276,27.972136]}},{"type":"Feature","properties":{"Name":"Koshi Zonal Hospital, Biratnagar","CD4 count machine":"PIMA POC","District":"Morang"},"geometry":{"type":"Point","coordinates":[87.284832,26.459268]}},
{"type":"Feature","properties":{"Name":"Trishuli Hospital, Nuwakot","CD4 count machine":"BD POC","District":"Nuwakot"},"geometry":{"type":"Point","coordinates":[85.136594,27.9246445]}},

{"type":"Feature","properties":{"Name":"NPHL","CD4 count machine":"PARTEC Cyflow Counter","District":"Kathmandu"},"geometry":{"type":"Point","coordinates":[85.2363104,27.6956041]}},


{"type":"Feature","properties":{"Name":"Waling PHC, Waling","CD4 count machine":"PARTEC Cyflow Counter","District":"Syangja"},"geometry":{"type":"Point","coordinates":[83.765715,27.9768402]}},
{"type":"Feature","properties":{"Name":"Gajendra Narayan Singh/ Sagarmatha Zonal Hospital, Rajbiraj Road, Rajbiraj","CD4 count machine":"PARTEC Cyflow Counter","District":"Saptari"},"geometry":{"type":"Point","coordinates":[86.7477594,26.5359504]}},
{"type":"Feature","properties":{"Name":"District Hospital Dailekh,Dailekh","CD4 count machine":"PARTEC Cyflow Counter","District":"Dailekh"},"geometry":{"type":"Point","coordinates":[81.7080206,28.8268446]}},
{"type":"Feature","properties":{"Name":"District Hospital kapilvastu,kapilvastu","CD4 count machine":"PARTEC Cyflow Counter","District":"kapilvastu"},"geometry":{"type":"Point","coordinates":[83.0477522,27.6154211]}} ,

{"type":"Feature","properties":{"Name":"Syanja District Hospital , Syanja","CD4 count machine":"PARTEC Cyflow Counter","District":"Syangja"},"geometry":{"type":"Point","coordinates":[83.8576325,28.1206113]}}

]}